[
  {
    "id": 1,
    "name": "Travis AFB",
    "lat": 38.273198309851736,
    "lng": -121.94443455546879
  },
  {
    "id": 2,
    "name": "Patrick SFB",
    "lat": 28.255378133423037,
    "lng": -80.60544844678353
  },
  {
    "id": 3,
    "name": "Fort Buckner",
    "lat": 26.295312530955673,
    "lng": 127.77846327540517
  },
  {
    "id": 4,
    "name": "Eglin AFB",
    "lat": 30.47181687753664,
    "lng": -86.53216619173087
  },
  {
    "id": 5,
    "name": "Vandenberg SFB",
    "lat": 34.75687729722548,
    "lng": -120.55460661218399
  },
  {
    "id": 6,
    "name": "Holloman AFB",
    "lat": 32.85432412543247,
    "lng": -106.0874165037745
  },
  {
    "id": 7,
    "name": "Schwab AFB",
    "lat": 26.37078968443826,
    "lng": 127.84536009962545
  },
  {
    "id": 8,
    "name": "Wright-Patterson AFB",
    "lat": 39.82635921981985,
    "lng": -84.0517722272022
  },
  {
    "id": 9,
    "name": "Davis-Monthan AFB",
    "lat": 32.16709149838944,
    "lng": -110.87402192993953
  },
  {
    "id": 10,
    "name": "Barksdale AFB",
    "lat": 32.50197221642983,
    "lng": -93.66219693641584
  },
  {
    "id": 11,
    "name": "Peterson SFB",
    "lat": 38.82246025336541,
    "lng": -104.70621483086536
  },
  {
    "id": 12,
    "name": "Cape Canaveral SFS",
    "lat": 28.38918197456699,
    "lng": -80.60318687253206
  },
  {
    "id": 13,
    "name": "Luke AFB",
    "lat": 33.52145094762851,
    "lng": -112.37100528628154
  },
  {
    "id": 14,
    "name": "Maxwell AFB",
    "lat": 32.38449447246859,
    "lng": -86.36524713721172
  },
  {
    "id": 15,
    "name": "Cannon AFB",
    "lat": 34.38589722393274,
    "lng": -103.31810033082547
  },
  {
    "id": 16,
    "name": "Hanscom AFB",
    "lat": 42.461924857917595,
    "lng": -71.28720697310018
  },
  {
    "id": 17,
    "name": "Creech AFB",
    "lat": 36.58113916638956,
    "lng": -115.67473618077985
  },
  {
    "id": 18,
    "name": "Offutt AFB",
    "lat": 41.1228310149308,
    "lng": -95.91559517742402
  },
  {
    "id": 19,
    "name": "Hurlburt Field",
    "lat": 30.427064836312994,
    "lng": -86.6898696317113
  },
  {
    "id": 20,
    "name": "Los Angeles AFB",
    "lat": 33.9161722884335,
    "lng": -118.37903684330648
  },
  {
    "id": 21,
    "name": "Keesler AFB",
    "lat": 30.412395741255125,
    "lng": -88.92379816523135
  },
  {
    "id": 22,
    "name": "Randolph AFB",
    "lat": 29.53187911148933,
    "lng": -98.27838793438157
  },
  {
    "id": 23,
    "name": "Tinker AFB",
    "lat": 35.41238183889909,
    "lng": -97.39322502138606
  },
  {
    "id": 24,
    "name": "McConnell AFB",
    "lat": 37.62616042293943,
    "lng": -97.26160408270825
  },
  {
    "id": 25,
    "name": "Fort Lee",
    "lat": 37.24447091755717,
    "lng": -77.3374905374704
  },
  {
    "id": 26,
    "name": "Dover AFB",
    "lat": 39.12861741900317,
    "lng": -75.45504921932934
  },
  {
    "id": 27,
    "name": "Joint Base Lewis-McChord",
    "lat": 47.108666232,
    "lng": -122.558831098
  }
]